,City,Lat,Lng,Max Temp,Humidity,Cloudiness,Wind Speed,Country,Date
0,Busselton,-33.65,115.3333,19.44,96,12,2.75,AU,1617062425
1,Bubaque,11.2833,-15.8333,24.37,71,12,6.2,GW,1617062425
2,São Filipe,14.8961,-24.4956,20.76,73,73,5.54,CV,1617062136
3,Salalah,17.0151,54.0924,27.0,54,0,2.06,OM,1617062106
4,Rikitea,-23.1203,-134.9692,26.01,70,8,6.85,PF,1617062312
5,Kosaya Gora,54.119,37.5446,-4.21,98,95,2.53,RU,1617062426
6,Mar del Plata,-38.0023,-57.5575,17.22,82,40,3.09,AR,1617062131
7,Ushuaia,-54.8,-68.3,10.0,76,20,2.06,AR,1617062310
8,Vaini,-21.2,-175.2,27.0,89,75,3.6,TO,1617061998
9,Porbandar,21.6422,69.6093,25.04,81,2,4.2,IN,1617062427
10,Pevek,69.7008,170.3133,-20.59,93,100,1.61,RU,1617062122
11,Jamestown,42.097,-79.2353,3.0,65,1,1.28,US,1617061944
12,Qaanaaq,77.484,-69.3632,-26.08,62,48,3.52,GL,1617062189
13,Mahébourg,-20.4081,57.7,23.0,94,20,2.57,MU,1617062197
14,Taoudenni,22.6783,-3.9836,26.85,6,85,5.06,ML,1617062380
15,Atuona,-9.8,-139.0333,27.0,79,28,8.55,PF,1617062195
16,Hilo,19.7297,-155.09,26.0,69,40,5.14,US,1617061873
17,Port Alfred,-33.5906,26.891,20.15,89,92,9.73,ZA,1617062034
18,Khatanga,71.9667,102.5,-31.91,96,25,5.3,RU,1617062020
19,Caravelas,-17.7125,-39.2481,25.67,73,0,3.55,BR,1617062206
20,Castro,-24.7911,-50.0119,16.8,94,53,1.91,BR,1617062055
21,Ust-Kuyga,70.0167,135.6,-14.63,96,100,2.27,RU,1617062428
22,Kenai,60.5544,-151.2583,6.0,70,1,10.29,US,1617062429
23,Husavik,66.0449,-17.3389,-4.0,86,90,2.06,IS,1617061991
24,Sakakah,29.9697,40.2064,14.0,19,0,3.09,SA,1617062301
25,Albany,42.6001,-73.9662,5.0,31,2,4.26,US,1617061983
26,Lata,40.1629,-8.3327,14.44,84,30,1.94,PT,1617062197
27,Aksu,41.1231,80.2644,7.51,62,56,1.32,CN,1617062430
28,Nikolskoye,59.7035,30.7861,6.0,81,90,5.0,RU,1617062174
29,Chokurdakh,70.6333,147.9167,-18.12,97,97,2.17,RU,1617062104
30,Barcelos,41.5388,-8.6151,15.56,72,0,3.6,PT,1617062431
31,Virginia Beach,36.8529,-75.978,11.67,60,0,3.13,US,1617061922
32,Gizo Government Station,-8.103,156.8419,29.13,68,84,0.69,SB,1617062431
33,Bogo,11.0517,124.0055,27.61,75,72,3.43,PH,1617062432
34,Belmonte,-15.8631,-38.8828,26.0,73,0,2.57,BR,1617062066
35,Tiksi,71.6872,128.8694,-14.17,93,100,1.9,RU,1617062133
36,Carnarvon,-24.8667,113.6333,26.0,89,62,4.63,AU,1617062260
37,Kavaratti,10.5669,72.642,27.93,74,99,4.09,IN,1617062221
38,Bredasdorp,-34.5322,20.0403,11.0,93,50,1.54,ZA,1617061998
39,Maragogi,-9.0122,-35.2225,26.03,82,47,3.5,BR,1617062433
40,Christchurch,-43.5333,172.6333,18.33,72,90,1.03,NZ,1617062433
41,Anloga,5.7947,0.8973,28.0,83,40,4.63,GH,1617062434
42,Torbay,47.6666,-52.7314,4.44,100,90,11.32,CA,1617062088
43,Severo-Kuril'sk,50.6789,156.125,2.22,96,100,9.43,RU,1617062037
44,Mastic,40.802,-72.8409,10.0,34,1,3.6,US,1617062205
45,Ribeira Grande,38.5167,-28.7,14.89,80,100,2.7,PT,1617061991
46,West Wendover,40.7391,-114.0733,9.0,12,1,4.12,US,1617062435
47,Portland,45.5234,-122.6762,12.22,47,75,7.2,US,1617062217
48,Bluff,-46.6,168.3333,15.56,88,100,0.45,NZ,1617061995
49,Ejea de los Caballeros,42.1263,-1.1372,13.0,47,43,6.17,ES,1617062436
50,Hithadhoo,-0.6,73.0833,28.84,72,100,10.49,MV,1617062238
51,Port Pirie,-33.1833,138.0167,19.0,82,0,0.47,AU,1617062436
52,Punta Arenas,-53.15,-70.9167,9.0,93,75,1.54,CL,1617062050
53,Provideniya,64.3833,-173.3,-7.0,79,90,4.0,RU,1617062202
54,Sipe Sipe,-17.45,-66.3833,19.0,48,75,3.09,BO,1617062437
55,Camopi,3.1655,-52.3158,22.35,99,76,1.08,GF,1617062437
56,Beloha,-25.1667,45.05,19.85,86,3,1.95,MG,1617062173
57,Kropachëvo,55.0112,57.9896,-3.02,98,100,0.92,RU,1617062438
58,Kaitangata,-46.2817,169.8464,16.67,78,100,2.68,NZ,1617062203
59,Faanui,-16.4833,-151.75,27.97,72,67,6.9,PF,1617061999
60,Mataura,-46.1927,168.8643,15.56,88,98,0.45,NZ,1617062041
61,Abu Samrah,35.3029,37.1841,10.15,42,21,1.49,SY,1617062301
62,Cabo San Lucas,22.8909,-109.9124,28.33,21,40,1.54,MX,1617062196
63,Hobart,-42.8794,147.3294,16.67,58,0,5.66,AU,1617062179
64,Thaton,16.9206,97.3714,25.33,70,76,1.24,MM,1617062439
65,La Ronge,55.1001,-105.2842,-8.0,79,100,5.66,CA,1617062440
66,Cácota,7.2679,-72.642,23.0,83,75,2.06,CO,1617062440
67,Avarua,-21.2078,-159.775,30.0,66,75,6.17,CK,1617062070
68,Airai,-8.9266,125.4092,15.97,98,100,2.01,TL,1617062225
69,Malacky,48.436,17.0219,11.11,70,100,1.11,SK,1617062441
70,Daliao,5.8611,124.9533,25.46,88,100,2.03,PH,1617062441
71,Pisco,-13.7,-76.2167,22.0,68,0,9.26,PE,1617062190
72,Mayumba,-3.432,10.6554,25.36,86,95,0.69,GA,1617062442
73,Puerto Ayora,-0.7393,-90.3518,26.67,91,45,1.79,EC,1617062188
74,Narsaq,60.9167,-46.05,-5.0,50,75,1.03,GL,1617062227
75,Vao,-22.6667,167.4833,26.11,66,100,3.61,NC,1617062204
76,Kapaa,22.0752,-159.319,24.0,73,75,6.69,US,1617062036
77,Ouésso,1.6136,16.0517,21.81,96,100,1.25,CG,1617062443
78,Workington,54.6425,-3.5441,7.78,97,59,3.58,GB,1617062443
79,Abhā,18.2164,42.5053,16.0,47,0,1.77,SA,1617062215
80,Poya,-21.35,165.15,29.86,52,94,3.97,NC,1617062443
81,Kavieng,-2.5744,150.7967,29.66,67,100,5.41,PG,1617062240
82,Cayenne,4.9333,-52.3333,27.22,89,75,6.17,GF,1617062052
83,Arman',59.7,150.1667,-4.08,68,100,2.83,RU,1617062156
84,Saskylakh,71.9167,114.0833,-27.53,98,99,2.92,RU,1617062131
85,Skibbereen,51.55,-9.2667,9.0,93,90,4.63,IE,1617062444
86,Hermanus,-34.4187,19.2345,17.78,64,27,2.2,ZA,1617062026
87,Kyren,51.6828,102.1408,-1.49,79,28,0.83,RU,1617062445
88,Severo-Yeniseyskiy,60.3725,93.0408,-15.75,99,100,0.61,RU,1617062445
89,Geraldton,-28.7667,114.6,24.0,69,90,6.17,AU,1617062284
90,Port Elizabeth,-33.918,25.5701,19.0,88,20,5.66,ZA,1617062170
91,Vanimo,-2.6741,141.3028,27.15,82,100,0.51,PG,1617062161
92,Butaritari,3.0707,172.7902,27.4,79,34,6.97,KI,1617061989
93,Praia da Vitória,38.7333,-27.0667,14.44,88,40,6.57,PT,1617062180
94,Korzhevskiy,45.1941,37.7195,6.67,75,100,5.0,RU,1617062446
95,Beringovskiy,63.05,179.3167,-10.49,83,100,8.76,RU,1617062265
96,Bakchar,57.0186,82.0711,-6.46,93,100,4.53,RU,1617062447
97,Barrow,71.2906,-156.7887,-18.0,65,1,11.32,US,1617062014
98,Birakan,49.0167,131.7,0.86,99,100,1.63,RU,1617062447
99,Iqaluit,63.7506,-68.5145,-17.78,78,20,8.75,CA,1617062177
100,Ambon City,-3.6954,128.1814,28.0,83,20,1.54,ID,1617062448
101,Hanstholm,57.1167,8.6167,8.89,3,55,1.79,DK,1617062449
102,Konispol,39.6589,20.1814,11.67,69,37,0.89,AL,1617062449
103,Yermish',54.7678,42.2711,-4.67,98,11,1.52,RU,1617062450
104,Luleå,65.5842,22.1547,2.0,100,40,4.12,SE,1617062450
105,Araceli,10.5529,119.9913,28.05,76,100,6.1,PH,1617062451
106,College,64.8569,-147.8028,0.56,69,90,1.24,US,1617061898
107,Bull Savanna,17.8868,-77.5902,24.2,78,33,4.3,JM,1617062452
108,Vardø,70.3705,31.1107,1.58,82,90,4.37,NO,1617062225
109,Kawambwa,-9.7915,29.0791,16.04,97,90,3.14,ZM,1617062452
110,Zonguldak,41.25,31.8333,-0.1,79,85,2.22,TR,1617062453
111,Saint Paul Harbor,57.79,-152.4072,8.0,61,75,5.14,US,1617062209
112,Yellowknife,62.456,-114.3525,-14.0,43,1,3.6,CA,1617062311
113,Malatya Province,38.5,38.0,-2.0,86,0,2.06,TR,1617062453
114,Upernavik,72.7868,-56.1549,-21.34,73,97,3.14,GL,1617062175
115,Saint-Philippe,-21.3585,55.7679,25.0,73,0,3.09,RE,1617062070
116,San Nicolas,18.1725,120.5953,24.0,88,20,0.51,PH,1617062414
117,Puerto Carreño,6.189,-67.4859,29.34,57,100,3.13,CO,1617062454
118,Patacamaya,-17.2333,-67.9167,8.56,81,83,2.82,BO,1617062455
119,Moree,-29.4667,149.85,22.0,60,90,3.6,AU,1617062420
120,Ilulissat,69.2167,-51.1,-8.0,49,40,9.26,GL,1617061995
121,Flinders,-34.5833,150.8552,20.56,58,48,1.79,AU,1617062455
122,General Pico,-35.6566,-63.7568,17.02,71,0,1.99,AR,1617062173
123,Harper,4.375,-7.7169,25.81,87,20,1.58,LR,1617062212
124,Saint George,37.1041,-113.5841,25.56,8,1,7.2,US,1617062211
125,Esperance,-33.8667,121.9,28.0,24,87,7.72,AU,1617062046
126,Nhulunbuy,-12.2333,136.7667,29.0,74,75,6.69,AU,1617062456
127,Lavrentiya,65.5833,-171.0,-9.53,84,100,5.53,RU,1617062030
128,Miraflores,19.2167,-98.8083,24.0,29,90,3.6,MX,1617062457
129,Seinäjoki,62.7945,22.8282,5.0,87,0,4.12,FI,1617062457
130,Port Augusta,-32.5,137.7667,23.33,82,0,1.13,AU,1617062457
131,Visby,57.6409,18.296,8.33,93,100,6.69,SE,1617062219
132,Mount Gambier,-37.8333,140.7667,14.0,100,90,0.51,AU,1617062230
133,San Quintín,30.4833,-115.95,17.86,66,100,5.15,MX,1617062187
134,Emerald,-23.5333,148.1667,26.11,41,0,6.69,AU,1617062228
135,Sept-Îles,50.2001,-66.3821,-3.0,59,40,11.32,CA,1617062162
136,Longyearbyen,78.2186,15.6401,-4.0,74,40,10.29,SJ,1617062193
137,Olinda,-8.0089,-34.8553,27.0,74,40,1.54,BR,1617062459
138,San Andrés,12.5847,-81.7006,28.0,74,20,8.23,CO,1617062459
139,Bafoulabé,13.8065,-10.8321,35.17,24,96,1.01,ML,1617062460
140,San Agustín Acasaguastlán,14.95,-89.9667,31.0,37,20,6.17,GT,1617062460
141,Walvis Bay,-22.9575,14.5053,16.11,82,5,1.03,NA,1617062245
142,Thompson,55.7435,-97.8558,-12.0,79,90,9.77,CA,1617062096
143,El Batey,19.7667,-70.5167,25.0,88,20,4.12,DO,1617062461
144,Usuki,33.1081,131.7878,14.0,94,75,3.09,JP,1617062461
145,East London,-33.0153,27.9116,20.4,89,98,7.48,ZA,1617062236
146,Masvingo,-20.0637,30.8277,13.25,88,1,1.56,ZW,1617062462
147,Hong Kong,22.2855,114.1577,26.11,85,24,0.45,HK,1617062036
148,Bengkulu,-3.8004,102.2655,24.28,89,72,1.62,ID,1617062204
149,Callaguip,18.0714,120.4867,24.0,88,20,0.51,PH,1617062462
150,Hambantota,6.1241,81.1185,24.46,81,100,6.58,LK,1617062237
151,Nangomba,-10.9,38.5,21.08,98,98,1.66,TZ,1617062463
152,Geilo,60.5333,8.2076,-2.36,88,27,4.78,NO,1617062463
153,Tuktoyaktuk,69.4541,-133.0374,-22.0,77,20,7.72,CA,1617062061
154,Kumul,42.8,93.45,10.59,36,100,5.68,CN,1617062061
155,Wysokie Mazowieckie,52.9166,22.5171,9.44,92,100,3.8,PL,1617062464
156,Praia,14.9215,-23.5087,20.0,77,75,7.2,CV,1617062464
157,Quelimane,-17.8786,36.8883,21.7,92,15,2.7,MZ,1617062268
158,Normandin,48.8333,-72.5321,-5.0,58,33,7.72,CA,1617062464
159,Kapitanivka,48.9172,31.7167,4.27,69,85,3.03,UA,1617062465
160,Khovd,48.0056,91.6419,-0.78,40,78,3.38,MN,1617062465
161,Mandera,3.9366,41.867,28.53,57,90,7.62,KE,1617062465
162,Hondomachi-hondo,32.45,130.2,14.0,94,75,1.03,JP,1617062466
163,Hasaki,35.7333,140.8333,18.0,77,75,3.6,JP,1617062071
164,Kununurra,-15.7667,128.7333,27.0,65,61,2.57,AU,1617062466
165,Mount Isa,-20.7333,139.5,29.0,34,40,7.2,AU,1617062235
166,Zhezkazgan,47.8043,67.7144,-5.13,80,100,2.29,KZ,1617062467
167,Vila Franca do Campo,37.7167,-25.4333,16.0,88,75,7.2,PT,1617062310
168,Norman Wells,65.282,-126.8329,-11.0,44,75,5.66,CA,1617062148
169,Srednekolymsk,67.45,153.6833,-11.75,76,60,1.67,RU,1617062467
170,Curup,-3.4667,102.5333,20.34,97,75,0.64,ID,1617062467
171,Padang,-0.9492,100.3543,24.0,94,75,2.57,ID,1617062468
172,San Patricio,28.017,-97.5169,19.0,77,90,5.66,US,1617062181
173,Zyryanka,65.75,150.85,-12.83,84,30,4.18,RU,1617062253
174,Chui,-33.6971,-53.4616,19.65,81,44,6.54,UY,1617062057
175,Anadyr,64.75,177.4833,-14.0,85,75,7.0,RU,1617062468
176,Aracati,-4.5617,-37.7697,26.44,80,77,3.94,BR,1617062410
177,Dingle,10.9995,122.6711,27.57,76,66,4.31,PH,1617062201
178,Massapê,-3.5228,-40.3428,23.17,97,73,1.37,BR,1617062469
179,Ponta Porã,-22.5361,-55.7256,20.34,72,57,2.35,BR,1617062469
180,Pishin,30.5803,66.9961,11.43,29,17,3.79,PK,1617062469
181,Okhotsk,59.3833,143.3,-6.45,86,100,3.06,RU,1617062470
182,Coos Bay,43.3665,-124.2179,11.11,62,75,9.77,US,1617062081
183,Port Lincoln,-34.7333,135.8667,21.21,64,1,2.35,AU,1617062207
184,Cape Town,-33.9258,18.4232,17.78,88,0,3.6,ZA,1617061874
185,Tura,25.5198,90.2201,19.26,76,27,2.86,IN,1617062209
186,Bontang,0.1333,117.5,24.55,90,100,2.12,ID,1617062262
187,Ligayan,4.6533,119.4706,28.05,77,54,4.73,PH,1617062256
188,Al Bardīyah,31.7561,25.0865,13.55,63,0,4.48,LY,1617062470
189,Kutum,14.2,24.6667,16.41,12,0,5.02,SD,1617062065
190,Tynda,55.1667,124.7167,-9.17,87,29,1.9,RU,1617062471
191,Rawson,-43.3002,-65.1023,17.51,64,6,6.97,AR,1617062174
192,Paphos,34.7667,32.4167,8.0,71,20,4.63,CY,1617062422
193,Buribay,51.9617,58.1592,-11.49,95,20,2.42,RU,1617062471
194,Tabuk,17.4189,121.4443,25.77,73,7,1.63,PH,1617062243
195,Goubellat,36.5418,9.6633,13.0,88,0,2.06,TN,1617062472
196,Xining,36.6167,101.7667,7.32,44,100,1.21,CN,1617062472
197,Were Īlu,10.6,39.4333,10.78,48,30,2.23,ET,1617062472
198,Deputatsky,69.3,139.9,-15.35,90,78,0.56,RU,1617062473
199,Pauini,-7.7136,-66.9764,23.74,95,91,0.5,BR,1617062473
200,Ossora,59.2353,163.0719,-5.65,70,32,0.95,RU,1617062473
201,Sur,22.5667,59.5289,28.32,36,19,2.34,OM,1617062150
202,Prince Rupert,54.3161,-130.3201,5.0,65,90,1.54,CA,1617062244
203,Bambous Virieux,-20.3428,57.7575,23.89,94,20,2.57,MU,1617062275
204,Chake Chake,-5.2459,39.7666,26.67,79,72,2.18,TZ,1617062474
205,Pringsewu,-5.3582,104.9744,23.7,95,77,1.1,ID,1617062474
206,Mindelo,16.8901,-24.9804,21.0,64,20,9.26,CV,1617062474
207,Atocha,-20.9333,-66.2333,12.36,34,3,2.55,BO,1617062475
208,Bethel,41.3712,-73.414,11.0,24,1,4.63,US,1617061989
209,Arraial do Cabo,-22.9661,-42.0278,25.79,86,57,3.29,BR,1617062051
210,Olafsvik,64.8945,-23.7142,-1.08,68,100,6.63,IS,1617062475
211,Mujiayingzi,42.1167,118.7833,6.77,26,39,1.85,CN,1617062475
212,Tema,5.667,-0.0166,28.0,83,20,3.6,GH,1617062476
213,Lundazi,-12.2929,33.1782,17.93,88,77,4.18,ZM,1617062476
214,Nishihara,26.1842,127.7558,24.0,94,90,3.09,JP,1617062476
215,Katsuura,35.1333,140.3,17.0,94,75,1.54,JP,1617062072
216,Nanortalik,60.1432,-45.2371,-2.1,59,78,3.68,GL,1617062145
217,Lorengau,-2.0226,147.2712,28.7,74,100,2.39,PG,1617062277
218,Port Blair,11.6667,92.75,26.78,79,94,1.82,IN,1617062178
219,Lerwick,60.1545,-1.1494,7.0,93,90,2.35,GB,1617062477
220,New Norfolk,-42.7826,147.0587,16.67,63,100,1.78,AU,1617062099
221,Wardha,20.75,78.6167,24.0,31,23,2.54,IN,1617062477
222,Pasni,25.2631,63.471,26.53,33,88,8.05,PK,1617062478
223,Lebu,-37.6167,-73.65,13.22,92,11,0.59,CL,1617062175
224,Sinnamary,5.3833,-52.95,25.34,86,93,6.5,GF,1617062192
225,Hualmay,-11.0964,-77.6139,21.14,84,85,3.64,PE,1617062208
226,Vallenar,-28.5708,-70.7581,19.86,54,0,1.28,CL,1617062213
227,Kaeo,-35.1,173.7833,21.11,94,82,5.36,NZ,1617062478
228,Bowling Green,36.9903,-86.4436,17.0,29,1,3.09,US,1617062399
229,Shelburne,44.0787,-80.2041,5.0,52,1,3.6,CA,1617062299
230,Koosa,58.5255,27.0795,7.78,93,90,7.2,EE,1617062479
231,Ayan,56.45,138.1667,-3.51,94,100,7.54,RU,1617062195
232,Coahuayana Viejo,18.7333,-103.6833,28.0,34,75,2.19,MX,1617062479
233,Kozhva,65.1073,57.0459,0.7,97,100,3.57,RU,1617062479
234,Tazovsky,67.4667,78.7,-23.91,91,100,2.96,RU,1617062480
235,Bonthe,7.5264,-12.505,25.76,86,91,1.44,SL,1617062030
236,San Cristobal,7.7669,-72.225,27.0,74,40,2.06,VE,1617062181
237,San Jose,37.3394,-121.895,20.56,42,1,3.6,US,1617062480
238,Codajás,-3.8367,-62.0569,23.74,96,89,0.96,BR,1617062481
239,Dikson,73.5069,80.5464,-33.64,99,41,3.43,RU,1617062181
240,Makakilo City,21.3469,-158.0858,27.0,61,90,4.12,US,1617062221
241,Yola,9.2,12.4833,27.32,17,2,1.53,NG,1617062481
242,Swan River,52.1058,-101.2676,1.0,86,100,5.66,CA,1617062481
243,Haines Junction,60.7522,-137.5108,1.0,40,95,2.06,CA,1617062242
244,Merano,46.6682,11.1595,8.89,61,29,2.05,IT,1617062482
245,Durusu,41.3053,28.6767,6.67,70,0,2.06,TR,1617062482
246,Chalinze,-6.6378,38.354,21.59,98,100,1.32,TZ,1617062482
247,Kahului,20.8947,-156.47,27.0,61,40,3.6,US,1617062312
248,Davidson,36.1501,-86.7833,18.0,29,1,2.57,US,1617062483
249,Zverinogolovskoye,54.4586,64.8542,-16.78,99,52,1.9,RU,1617062483
250,Rio Grande,-32.035,-52.0986,18.33,86,25,6.11,BR,1617062483
251,Kendari,-3.945,122.4989,25.72,88,98,1.69,ID,1617062484
252,Port Hardy,50.6996,-127.4199,7.0,57,20,6.69,CA,1617062194
253,Westport,41.1415,-73.3579,9.44,39,1,4.73,US,1617062211
254,Lima,-12.0432,-77.0282,22.78,73,0,4.63,PE,1617062264
255,Nyurba,63.2842,118.3319,-8.27,93,93,1.33,RU,1617062484
256,Kloulklubed,7.0419,134.2556,29.0,79,75,3.6,PW,1617062249
257,Lüderitz,-26.6481,15.1594,16.35,81,0,3.2,NA,1617062213
258,Yerbogachën,61.2767,108.0108,-6.02,95,100,0.27,RU,1617062053
259,Muisne,0.6,-80.0333,24.27,91,97,2.0,EC,1617062485
260,Chekhov,55.1431,37.4711,-6.67,100,29,2.13,RU,1617062485
261,Deqing,30.5448,119.9599,17.78,96,100,3.13,CN,1617062485
262,San Ignacio,17.1561,-89.0714,33.0,35,20,4.12,BZ,1617062486
263,Dossor,47.5272,52.9811,1.47,72,42,2.08,KZ,1617062486
264,Kefamenanu,-9.4467,124.4781,21.79,95,100,2.44,ID,1617062486
265,Morón,-34.6534,-58.6198,21.11,77,73,2.55,AR,1617062487
266,Zaranj,30.9667,61.8833,10.03,40,0,12.5,AF,1617062487
267,Piaçabuçu,-10.4056,-36.4344,25.86,83,49,3.7,BR,1617062487
268,Coyhaique,-45.5752,-72.0662,19.0,63,0,1.97,CL,1617062209
269,Lærdal,61.098,7.4816,5.56,91,99,2.6,NO,1617062488
270,Kyabram,-36.3167,145.05,15.56,66,52,0.89,AU,1617062488
271,Quatre Cocos,-20.2078,57.7625,23.89,94,20,2.57,MU,1617062127
272,Damara,4.9608,18.7035,28.0,65,3,0.64,CF,1617062488
273,Sørland,67.667,12.6934,4.87,88,100,12.53,NO,1617062489
274,Valdosta,30.8327,-83.2785,21.0,52,1,1.54,US,1617062489
275,Pangkalanbuun,-2.6833,111.6167,24.7,94,100,0.96,ID,1617062490
276,Vertou,47.1687,-1.4693,13.0,54,0,2.06,FR,1617062490
277,Øksfjord,70.2396,22.3479,2.0,75,90,2.57,NO,1617062259
278,Codrington,-38.2667,141.9667,17.67,70,71,2.41,AU,1617062221
279,Orange Cove,36.6244,-119.3137,27.22,22,1,4.63,US,1617062490
280,Batesville,35.7698,-91.641,19.0,34,1,4.12,US,1617062491
281,Pechora,65.1472,57.2244,0.71,97,100,3.68,RU,1617062491
282,San Miguel,13.4833,-88.1833,37.0,36,0,2.06,SV,1617062491
283,Sisimiut,66.9395,-53.6735,-7.75,57,100,7.38,GL,1617062279
284,‘Ewa Beach,21.3156,-158.0072,27.0,61,90,4.12,US,1617062492
285,Ketchikan,55.3422,-131.6461,3.0,87,90,2.06,US,1617062207
286,Amga,60.8953,131.9608,-5.57,93,100,3.19,RU,1617062492
287,Nador,35.174,-2.9287,16.0,94,90,3.09,MA,1617062311
288,George Town,5.4112,100.3354,27.22,89,40,1.54,MY,1617061993
289,Wawa,9.9022,4.4192,28.83,24,5,2.67,NG,1617062493
290,Eureka,40.8021,-124.1637,14.44,60,4,4.47,US,1617062073
291,Tuatapere,-46.1333,167.6833,15.56,88,100,0.45,NZ,1617062258
292,Constitución,-35.3333,-72.4167,12.67,89,26,0.86,CL,1617062216
293,Forsytheganj,52.6333,29.7333,3.45,84,96,2.74,BY,1617062493
294,Lubao,14.9167,120.55,26.0,73,75,2.06,PH,1617062494
295,Viesīte,56.3475,25.5551,5.79,96,100,4.83,LV,1617062494
296,Nantucket,41.2835,-70.0995,9.0,49,1,4.63,US,1617062494
297,Fortuna,40.5982,-124.1573,12.78,54,1,8.23,US,1617062049
298,São João da Barra,-21.6403,-41.0511,25.23,90,77,2.54,BR,1617062043
299,Sitka,57.0531,-135.33,4.0,93,90,2.06,US,1617062152
300,Aljezur,37.3191,-8.8033,16.57,76,76,6.32,PT,1617062495
301,Souillac,-20.5167,57.5167,23.0,94,20,2.57,MU,1617062073
302,Uray,60.1247,64.7758,-11.79,94,72,2.92,RU,1617062495
303,Perama,37.9757,23.5828,13.33,67,20,3.78,GR,1617062496
304,Isangel,-19.55,169.2667,28.0,83,75,2.57,VU,1617062269
305,City of San Pedro,14.35,121.0167,29.44,65,40,1.54,PH,1617062496
306,Promyshlennaya,54.9159,85.6385,-6.0,93,90,4.0,RU,1617062496
307,Port Hedland,-20.3167,118.5667,32.0,35,28,3.6,AU,1617062496
308,Tabou,4.423,-7.3528,25.91,87,17,1.77,CI,1617062291
309,Grand Gaube,-20.0064,57.6608,23.89,84,16,2.01,MU,1617062193
310,Río Gallegos,-51.6226,-69.2181,15.0,63,0,3.6,AR,1617062497
311,Lagoa,39.05,-27.9833,14.8,80,100,4.91,PT,1617062497
312,Algiers,36.7525,3.042,9.0,100,20,1.54,DZ,1617062498
313,Timrå,62.487,17.3257,2.22,93,76,2.06,SE,1617062498
314,Gaziantep,37.0594,37.3825,3.0,81,0,1.41,TR,1617062498
315,Nova Odesa,47.3078,31.7851,3.39,88,11,3.01,UA,1617062499
316,Atasū,48.6814,71.6433,-9.43,96,100,1.0,KZ,1617062499
317,Taraclia,45.9,28.6689,4.84,85,26,5.87,MD,1617062499
318,The Valley,18.217,-63.0578,26.0,78,40,6.69,AI,1617062499
319,Acaraú,-2.8856,-40.12,25.78,83,49,3.65,BR,1617062500
320,Tavda,58.0425,65.2726,-13.34,97,63,1.29,RU,1617062500
321,Mayaky,47.4408,29.5599,3.38,91,29,3.93,UA,1617062500
322,Juneau,58.3019,-134.4197,1.0,80,90,8.23,US,1617062421
323,Phang Nga,8.4509,98.5298,27.78,100,20,1.03,TH,1617062501
324,La Florida,1.2985,-77.4061,13.65,91,100,2.43,CO,1617062501
325,Beyneu,45.3167,55.2,1.54,68,17,2.42,KZ,1617062501
326,Naze,28.3667,129.4833,22.0,88,75,2.06,JP,1617062200
327,Vila Velha,-20.3297,-40.2925,27.0,74,0,2.57,BR,1617062104
328,Mackenzie,55.2999,-123.1698,0.0,34,1,1.54,CA,1617062502
329,Arrondissement du Havre,49.5833,0.3333,12.0,62,0,2.57,FR,1617062502
330,Pemangkat,1.1667,108.9667,25.6,85,67,1.45,ID,1617062262
331,Harstad,68.799,16.5293,2.22,93,90,1.54,NO,1617062503
332,Ca Mau,9.1769,105.15,26.05,84,19,1.51,VN,1617062416
333,Mandalgovi,45.7625,106.2708,2.19,52,34,8.14,MN,1617062266
334,Cidreira,-30.1811,-50.2056,21.17,66,9,3.29,BR,1617062085
335,Saint-Marc,19.1082,-72.6938,26.75,68,30,2.46,HT,1617062503
336,Varkaus,62.3153,27.873,4.0,93,90,7.2,FI,1617062503
337,The Pas,53.8251,-101.2541,-8.0,86,90,8.23,CA,1617062504
338,Asău,46.4333,26.4,2.78,69,0,2.06,RO,1617062088
339,Tsalka,41.5946,44.0891,-4.75,82,13,1.85,GE,1617062504
340,Mehamn,71.0357,27.8492,-0.35,84,25,5.12,NO,1617062271
341,Vostok,46.4856,135.8833,0.25,99,100,1.63,RU,1617062064
342,Qaqortoq,60.7167,-46.0333,-5.0,50,75,1.03,GL,1617062238
343,Jadu,31.953,12.0261,11.8,40,26,1.06,LY,1617062505
344,Pacific Grove,36.6177,-121.9166,14.0,58,1,6.17,US,1617062505
345,Haverfordwest,51.8017,-4.9691,8.89,99,0,4.02,GB,1617062505
346,Ponta do Sol,32.6667,-17.1,17.0,72,20,5.66,PT,1617062191
347,Mossamedes,-15.1961,12.1522,24.07,81,89,1.48,AO,1617062505
348,Grindavik,63.8424,-22.4338,-2.0,69,0,8.23,IS,1617062180
349,Esna,25.2934,32.554,15.0,47,0,5.57,EG,1617062506
350,Sittwe,20.15,92.9,24.55,84,4,0.81,MM,1617062167
351,Palmer,42.1584,-72.3287,6.67,36,1,4.63,US,1617062506
352,Teguise,29.0605,-13.564,18.0,77,20,2.06,ES,1617062507
353,Pombia,45.653,8.6336,12.22,76,0,2.57,IT,1617062507
354,Ulladulla,-35.35,150.4667,17.78,51,75,5.14,AU,1617062091
355,Nouakchott,18.0858,-15.9785,21.0,78,1,7.2,MR,1617062507
356,Oddur,4.1213,43.8894,23.48,73,26,6.88,SO,1617062508
357,Cockburn Town,21.4612,-71.1419,25.29,82,0,9.95,TC,1617062223
358,Gimli,50.6336,-96.9907,7.0,70,86,3.6,CA,1617062508
359,Vaasa,63.096,21.6158,3.0,87,0,3.09,FI,1617062508
360,Vilyuysk,63.7553,121.6247,-8.59,94,85,1.32,RU,1617062509
361,Tessalit,20.1986,1.0114,22.74,9,31,5.39,ML,1617062254
362,Ikeda,34.8221,135.4298,15.56,88,75,1.54,JP,1617062479
363,Muros,42.7762,-9.0603,12.78,80,85,3.6,ES,1617062251
364,Nizhnevartovsk,60.9344,76.5531,-19.0,84,0,2.0,RU,1617062509
365,Disna,55.568,28.1971,5.98,81,100,5.52,BY,1617062510
366,Ontario,34.0633,-117.6509,27.0,21,20,6.69,US,1617062492
367,Fayaoué,-20.65,166.5333,26.67,72,79,5.61,NC,1617062510
368,Lebyazh'ye,55.2689,66.4947,-19.2,99,68,2.05,RU,1617062510
369,San Policarpo,12.1791,125.5072,27.36,77,100,4.57,PH,1617062291
370,Ohangaron,40.9064,69.6383,5.0,93,0,2.06,UZ,1617062511
371,Yulara,-25.2406,130.9889,21.0,43,0,6.69,AU,1617062511
372,Saint-Joseph,-21.3667,55.6167,25.0,73,0,3.09,RE,1617062185
373,Puerto Colombia,10.9878,-74.9547,27.0,78,0,6.17,CO,1617062511
374,Kayerkan,69.3497,87.7602,-30.39,98,94,3.71,RU,1617062512
375,Pitimbu,-7.4706,-34.8086,27.0,94,0,2.06,BR,1617062255
376,Dapaong,10.8639,0.205,28.88,15,3,3.05,TG,1617062512
377,Brae,60.3964,-1.353,7.0,93,90,3.56,GB,1617062256
378,Necochea,-38.5473,-58.7368,14.44,95,17,2.94,AR,1617062155
379,Mondlo,-27.983,30.7177,11.88,93,45,1.46,ZA,1617062472
380,Djibouti,11.5,42.5,28.0,57,1,2.06,DJ,1617062513
381,Buala,-8.145,159.5921,30.06,64,14,1.71,SB,1617062254
382,Namatanai,-3.6667,152.4333,29.63,65,98,2.57,PG,1617062513
383,Havre-St-Pierre,50.2334,-63.5986,-1.0,80,90,11.32,CA,1617062513
384,Upington,-28.4478,21.2561,23.0,33,0,2.57,ZA,1617062514
385,Kroya,-7.6331,109.2461,26.24,86,87,1.1,ID,1617062515
386,Laguna,38.421,-121.4238,23.33,20,1,7.2,US,1617062132
387,Batemans Bay,-35.7167,150.1833,18.89,57,35,1.34,AU,1617062244
388,Rochegda,62.8,43.25,0.99,90,97,4.89,RU,1617062515
389,Gävle,60.6745,17.1417,7.78,89,100,1.79,SE,1617062516
390,São José da Coroa Grande,-8.8978,-35.1478,26.11,83,42,3.54,BR,1617062516
391,Taltal,-25.4,-70.4833,18.73,77,19,2.12,CL,1617062174
392,Karratha,-20.7377,116.8463,32.99,39,54,3.16,AU,1617062516
393,Margate,51.3813,1.3862,10.56,75,21,0.45,GB,1617062461
394,Nakanojōmachi,36.5833,138.85,15.56,62,95,1.37,JP,1617062517
395,Talnakh,69.4865,88.3972,-32.25,99,39,1.25,RU,1617062206
396,Marsaxlokk,35.8419,14.5431,13.33,94,20,2.06,MT,1617062517
397,Warangal,18.0,79.5833,26.44,26,7,3.89,IN,1617062517
398,Dudinka,69.4058,86.1778,-26.82,93,20,7.09,RU,1617062518
399,Santa Catalina,9.3337,122.8637,28.22,69,58,2.68,PH,1617062425
400,Chaoyang,41.5703,120.4586,10.1,20,4,0.97,CN,1617062509
401,São João do Piauí,-8.3581,-42.2467,27.33,59,56,2.59,BR,1617062518
402,Esmeraldas,-19.7625,-44.3139,22.0,88,40,2.06,BR,1617062519
403,Novikovo,51.1537,37.8879,1.59,67,57,3.25,RU,1617062170
404,Ancud,-41.8697,-73.8203,11.67,84,81,2.24,CL,1617062066
405,Tual,-5.6667,132.75,28.04,76,90,4.4,ID,1617062185
406,Hofn,64.2539,-15.2082,-2.3,66,2,8.59,IS,1617062519
407,Nemuro,43.3236,145.575,9.0,81,0,5.14,JP,1617062519
408,Tombouctou,20.0,-3.0,24.66,9,52,3.86,ML,1617062231
409,Tacuarembó,-31.7333,-55.9833,16.87,91,70,3.7,UY,1617062520
410,Lethem,3.3803,-59.7968,26.51,73,97,4.99,GY,1617062520
411,Flin Flon,54.7682,-101.865,-9.0,92,90,6.17,CA,1617062229
412,Huntingdon,52.3305,-0.1865,8.89,82,7,3.8,GB,1617062520
413,Kearney,40.6995,-99.0815,24.0,25,1,7.72,US,1617062521
414,Katwa,23.6399,88.128,22.89,95,10,3.94,IN,1617062521
415,Henties Bay,-22.116,14.2845,16.11,90,13,1.34,NA,1617062176
416,Port Keats,-14.25,129.55,27.56,64,97,4.92,AU,1617062521
417,Saldanha,-33.0117,17.9442,18.0,88,4,1.54,ZA,1617062105
418,North Platte,41.1239,-100.7654,27.0,12,1,5.66,US,1617062453
419,Yuzhno-Kurilsk,44.0306,145.8556,4.89,86,35,2.78,RU,1617062522
420,Unity,52.4501,-109.1682,-7.59,87,100,13.52,CA,1617062522
421,Ruwi,23.5996,58.5507,26.0,34,0,1.03,OM,1617062522
422,Kapoeta,4.7717,33.5903,28.53,36,29,2.8,SS,1617062523
423,Pekan,3.4836,103.3996,24.0,94,20,1.16,MY,1617062506
424,Lompoc,34.6391,-120.4579,16.0,63,0,8.75,US,1617062178
425,Farafangana,-22.8167,47.8333,22.58,87,10,3.51,MG,1617062523
426,Porto Santo,33.072,-16.3415,17.0,77,40,7.2,PT,1617062524
427,Chimoré,-16.9833,-65.1333,21.31,88,80,1.28,BO,1617062524
428,Yangi Marg`ilon,40.4272,71.7189,5.0,75,50,2.06,UZ,1617062271
429,Cherskiy,68.75,161.3,-16.75,91,100,3.86,RU,1617062199
430,Bealanana,-14.55,48.7333,17.78,98,67,0.74,MG,1617062524
431,Nehe,48.4833,124.8333,3.4,54,5,5.31,CN,1617062525
432,Alofi,-19.0595,-169.9187,29.0,74,11,6.69,NU,1617062525
433,Cervo,43.6702,-7.4101,14.44,73,89,1.12,ES,1617062525
434,Kashgar,39.4547,75.9797,10.0,17,0,9.0,CN,1617062526
435,George Town,5.4112,100.3354,27.22,89,40,1.54,MY,1617062363
436,Port Moresby,-9.4431,147.1797,28.0,89,75,3.09,PG,1617062299
437,Vermilion,40.1667,-87.7506,14.0,44,1,7.2,US,1617062526
438,Novaya Igirma,57.1334,103.9112,-1.59,91,100,3.37,RU,1617062526
439,Acajutla,13.5928,-89.8275,33.0,35,20,1.03,SV,1617062527
440,Kastamonu Province,41.5,33.6667,-1.19,90,99,0.59,TR,1617062527
441,Kungurtug,50.5994,97.5228,-4.51,93,95,0.9,RU,1617062527
442,Ubari,26.5921,12.7805,15.09,26,45,4.01,LY,1617062241
443,Porto Torres,40.835,8.3972,9.0,100,0,0.51,IT,1617062528
444,Ariogala,55.2667,23.4667,8.0,93,90,3.6,LT,1617062528
445,Languyan,5.2618,120.0807,28.62,71,59,3.28,PH,1617062528
446,Meulaboh,4.1363,96.1285,23.83,93,100,3.81,ID,1617062220
447,Knysna,-34.0363,23.0471,14.0,94,0,1.54,ZA,1617062529
448,Baghmara,23.795,86.2085,24.37,18,4,1.36,IN,1617062529
449,Appleton,44.2619,-88.4154,16.0,39,1,10.29,US,1617062529
450,Wewak,-3.5534,143.6268,28.79,69,97,1.29,PG,1617062529
451,Narasingāpuram,13.6167,79.3333,23.22,87,95,1.49,IN,1617062530
452,Sokolo,14.7328,-6.1219,27.72,9,1,4.32,ML,1617062530
453,Finkenstein,46.5623,13.8709,7.78,67,71,0.86,AT,1617062530
454,Dzhebariki-Khaya,62.2167,135.8,-6.43,89,100,1.28,RU,1617062531
455,Teya,60.3778,92.6267,-14.12,99,100,0.77,RU,1617062531
456,Adana Province,36.985,35.2881,9.0,76,0,2.06,TR,1617062531
457,Tasiilaq,65.6145,-37.6368,-8.0,57,0,3.12,GL,1617062048
458,Mafinga,-7.25,35.0667,17.87,95,80,1.49,TZ,1617062532
459,Klaksvík,62.2266,-6.589,3.0,81,75,2.02,FO,1617062106
460,Santa Cruz do Sul,-29.7175,-52.4258,17.78,87,2,0.89,BR,1617062532
461,Mogadishu,2.0371,45.3438,26.92,84,14,5.39,SO,1617062240
462,Manakara,-22.1333,48.0167,22.22,90,18,2.4,MG,1617062533
463,Adrar,20.5022,-10.0711,27.12,9,58,3.3,MR,1617062533
464,Camacha,33.0833,-16.3333,17.0,77,40,7.2,PT,1617062533
465,Contai,21.7786,87.7536,26.35,85,79,7.71,IN,1617062533
466,Eydhafushi,5.1033,73.0708,27.72,73,100,6.47,MV,1617062534
467,Batagay-Alyta,67.8006,130.4114,-15.54,80,87,1.26,RU,1617062534
468,Lumeje,-11.55,20.7833,18.16,93,71,1.09,AO,1617062534
469,Orekhovo,45.1294,33.6318,4.44,77,91,4.57,UA,1617062535
470,Kruisfontein,-34.0033,24.7314,16.67,89,19,0.45,ZA,1617062245
471,Igurusi,-8.85,33.85,16.64,96,95,0.76,TZ,1617062535
472,Kappeln,54.6612,9.9313,8.89,93,55,7.2,DE,1617062535
473,Sulphur,30.2366,-93.3774,20.0,52,1,3.6,US,1617062536
474,Bay Roberts,47.5999,-53.2648,5.56,96,100,1.34,CA,1617062536
475,Auki,-8.7676,160.7034,30.51,61,27,0.99,SB,1617062536
476,Mīzan Teferī,6.9833,35.5833,19.85,55,76,0.89,ET,1617062536
477,Marsh Harbour,26.5412,-77.0636,24.8,74,99,3.0,BS,1617062404
478,Vrede,-27.4257,29.1659,10.07,88,37,0.86,ZA,1617062537
479,Tonantins,-2.8731,-67.8022,23.43,97,93,0.82,BR,1617062537
480,Richards Bay,-28.783,32.0377,18.69,84,75,1.84,ZA,1617062170
481,Hamilton,39.1834,-84.5333,15.0,30,1,4.12,US,1617062214
482,Nome,64.5011,-165.4064,1.11,100,90,2.57,US,1617062254
483,Korla,41.7597,86.1469,5.16,87,100,8.16,CN,1617062270
484,Manama,26.2154,50.5832,21.0,56,0,7.72,BH,1617062538
485,Mocajuba,-2.5842,-49.5072,23.26,96,80,1.29,BR,1617062538
486,South Kazakhstan Region,43.0,68.0,5.48,62,95,1.26,KZ,1617062539
487,Morondava,-20.2833,44.2833,23.75,74,3,5.24,MG,1617062539
488,Huarmey,-10.0681,-78.1522,21.92,81,76,3.37,PE,1617062301
489,Catuday,16.2923,119.8062,26.96,73,43,2.95,PH,1617062539
490,Yichun,47.7,128.9,0.72,97,100,2.84,CN,1617062540
491,Midyat,37.4247,41.3393,2.0,87,0,1.54,TR,1617062540
492,Kibala,9.1104,18.3463,27.0,29,0,2.32,TD,1617062540
493,Koygorodok,60.445,50.9968,-4.89,98,34,2.02,RU,1617062541
494,Port-Cartier,50.0334,-66.8654,-3.0,59,40,11.32,CA,1617062302
495,Warrnambool,-38.3833,142.4833,14.44,91,82,1.7,AU,1617062541
496,Narovchat,53.8765,43.6946,-5.8,99,85,1.05,RU,1617062541
497,Koryukivka,51.7688,32.2481,1.39,81,46,2.99,UA,1617062542
498,Wanlaweyn,2.6185,44.8938,26.27,82,25,4.52,SO,1617062542
499,Macaé,-22.3708,-41.7869,25.0,83,40,2.06,BR,1617062446
500,Uarini,-2.99,-65.1083,24.0,83,40,5.66,BR,1617062542
501,Liwale,-9.7667,37.9333,19.75,98,91,2.23,TZ,1617062543
502,Nalhāti,24.3,87.8167,22.97,58,3,2.19,IN,1617062543
503,Clyde River,70.4692,-68.5914,-22.0,84,90,6.17,CA,1617062214
504,Ellisras,-23.6649,27.7443,16.5,71,17,2.37,ZA,1617062544
505,Shimoda,34.6667,138.95,17.22,88,75,3.6,JP,1617062244
506,Leningradskiy,69.3833,178.4167,-18.09,89,100,7.77,RU,1617062223
507,Zaysan,47.4667,84.8667,-5.83,84,86,2.08,KZ,1617062208
508,Bowen,-20.0167,148.2333,27.0,65,99,7.72,AU,1617062544
509,Brora,58.0099,-3.8518,14.44,77,75,10.29,GB,1617062544
510,Champerico,14.3,-91.9167,30.0,70,75,4.12,GT,1617062545
511,Kamenka,51.3223,42.7678,0.56,93,74,2.71,RU,1617062246
512,Wenshang,35.7275,116.4961,15.0,1,0,1.87,CN,1617062545
513,Mumford,5.2618,-0.759,26.45,89,28,3.62,GH,1617062545
514,Tadine,-21.55,167.8833,27.59,69,86,4.52,NC,1617062546
515,Jalu,29.0331,21.5482,13.47,48,38,3.92,LY,1617062201
516,Maniitsoq,65.4167,-52.9,-5.11,53,100,7.3,GL,1617062159
517,Ust-Tsilma,65.441,52.1498,1.3,96,100,3.63,RU,1617062547
518,Sechura,-5.5569,-80.8222,24.88,63,81,7.09,PE,1617062547
519,Neuquén,-38.9516,-68.0591,24.0,29,0,2.57,AR,1617062548
520,Sambava,-14.2667,50.1667,24.8,89,83,1.48,MG,1617062548
521,Corinth,37.9407,22.9573,13.33,65,85,0.45,GR,1617062543
522,Chūru,28.3,74.95,25.11,19,3,2.67,IN,1617062548
523,Sfântu Gheorghe,45.8667,25.7833,0.56,72,34,0.59,RO,1617062548
524,Gravelbourg,49.8834,-106.5512,-7.0,86,100,18.52,CA,1617062549
525,Clovis,36.8252,-119.7029,26.11,24,20,5.66,US,1617062440
526,Kanina,-10.7341,25.4699,15.34,97,100,3.1,CD,1617062549
527,Linxia Chengguanzhen,35.6003,103.2064,9.89,44,83,1.42,CN,1617062480
528,Pūndri,29.75,76.55,21.72,22,3,1.89,IN,1617062549
529,Lithgow,-33.4833,150.15,18.89,73,52,0.84,AU,1617062550
530,Petropavlovsk-Kamchatskiy,53.0452,158.6483,0.0,55,75,3.0,RU,1617062550
531,Skellefteå,64.7507,20.9528,5.0,75,70,5.66,SE,1617062188
532,Sarankhola,22.3082,89.7897,25.15,91,32,4.36,BD,1617062550
533,Coquimbo,-29.9533,-71.3436,15.0,82,20,4.12,CL,1617062287
534,Lanzhou,36.0564,103.7922,13.33,38,96,5.33,CN,1617062551
535,Kauhajoki,62.4333,22.1833,5.0,87,0,4.12,FI,1617062551
536,Grinnell,41.743,-92.7224,22.0,28,1,10.29,US,1617062551
537,Peremyshlyany,49.6652,24.5585,6.0,81,75,1.0,UA,1617062552
538,Presidente Franco,-25.5333,-54.6167,22.0,88,75,1.54,PY,1617062552
539,Vuktyl,63.8567,57.3094,0.13,97,100,3.09,RU,1617062552
540,Tayturka,52.8692,103.4608,-1.0,91,100,0.33,RU,1617062553
541,Sisophon,13.5859,102.9737,27.51,74,10,4.05,KH,1617062553
542,Fairbanks,64.8378,-147.7164,1.67,74,90,1.26,US,1617062241
543,Guilin,25.2819,110.2864,22.0,94,90,2.0,CN,1617062450
544,Verkhnyaya Inta,65.9811,60.3094,0.15,98,100,6.62,RU,1617062554
545,Deniliquin,-35.5333,144.9667,15.56,66,25,0.89,AU,1617062554
546,Jiazi,22.8779,116.067,24.28,85,35,4.19,CN,1617062554
547,Grand Island,40.925,-98.342,26.0,28,1,5.14,US,1617062554
548,Ganzhou,28.8184,115.4327,19.9,93,99,2.69,CN,1617062555
549,Dongsheng,39.8161,109.9776,7.48,33,100,2.22,CN,1617062555
550,Sabha,27.0377,14.4283,15.62,30,13,4.93,LY,1617062230
551,Kuril'sk,45.2333,147.8833,4.89,85,79,3.22,RU,1617062555
552,Yumen,40.2833,97.2,6.83,40,100,7.42,CN,1617062275
553,Kolokani,13.5728,-8.0339,26.43,9,4,4.55,ML,1617062556
554,Shatrovo,56.5167,64.6333,-12.26,99,82,0.9,RU,1617062556
555,Vágur,61.4732,-6.8119,6.2,70,100,1.77,FO,1617062556
556,Nabire,-3.3667,135.4833,29.04,66,100,0.53,ID,1617062557
557,Rome,43.2128,-75.4557,1.67,51,1,2.06,US,1617062545
558,Lázaro Cárdenas,17.9583,-102.2,27.47,51,90,3.65,MX,1617062558
559,Severiano Melo,-5.7772,-37.9578,23.5,92,100,2.47,BR,1617062558
560,Lakes Entrance,-37.8811,147.981,17.78,59,85,0.45,AU,1617062289
